Substances,,occupation/transformation,,amount-notused,unit-notused,,amount,unit
Raw,(unspecified),"Occupation, agriculture",,2.48999165,m2a,,2.49E-15,m2a
Raw,(unspecified),"Occupation, agriculture, mosaic",,2.48999165,m2a,,2.48999E-15,m2a
Raw,(unspecified),"Occupation, annual crop",,2.48999165,m2a,,2.48999E-15,m2a
Raw,(unspecified),"Occupation, annual crop, AD",,9.76458148,m2a,,9.76E-15,m2a
Raw,(unspecified),"Occupation, annual crop, AE",,1.53604311,m2a,,1.54E-16,m2a
Raw,(unspecified),"Occupation, annual crop, AF",,5.05257837,m2a,,5.05E-16,m2a
Raw,(unspecified),"Occupation, annual crop, AG",,1.25354055,m2a,,1.25E-13,m2a
Raw,(unspecified),"Occupation, annual crop, AI",,7.72804312,m2a,,7.73E-14,m2a
Raw,(unspecified),"Occupation, annual crop, AL",,9.30054546,m2a,,9.30E-15,m2a
Raw,(unspecified),"Occupation, annual crop, AM",,3.20484001,m2a,,3.20E-15,m2a
Raw,(unspecified),"Occupation, annual crop, AO",,8.73312603,m2a,,8.73E-16,m2a
Raw,(unspecified),"Occupation, annual crop, AQ",,2.48999165,m2a,,2.48999E-15,m2a
Raw,(unspecified),"Occupation, annual crop, AR",,1.03572202,m2a,,1.04E-15,m2a
Raw,(unspecified),"Occupation, annual crop, AS",,2.60983743,m2a,,2.61E-13,m2a
Raw,(unspecified),"Occupation, annual crop, AT",,1.61570312,m2a,,1.62E-15,m2a
Raw,(unspecified),"Occupation, annual crop, AU",,1.68908732,m2a,,1.69E-15,m2a
Raw,(unspecified),"Occupation, annual crop, AW",,1.25065882,m2a,,1.25E-14,m2a
Raw,(unspecified),"Occupation, annual crop, AZ",,3.03148070,m2a,,3.03E-15,m2a
Raw,(unspecified),"Occupation, annual crop, BA",,1.67306863,m2a,,1.67E-15,m2a
Raw,(unspecified),"Occupation, annual crop, BB",,7.22808491,m2a,,7.23E-14,m2a
Raw,(unspecified),"Occupation, annual crop, BD",,1.39264214,m2a,,1.39E-15,m2a
Raw,(unspecified),"Occupation, annual crop, BE",,2.11009720,m2a,,2.11E-16,m2a
Raw,(unspecified),"Occupation, annual crop, BF",,3.82741473,m2a,,3.83E-16,m2a
Raw,(unspecified),"Occupation, annual crop, BG",,1.87092572,m2a,,1.87E-15,m2a
Raw,(unspecified),"Occupation, annual crop, BH",,1.05329679,m2a,,1.05E-16,m2a
Raw,(unspecified),"Occupation, annual crop, BI",,5.52342347,m2a,,5.52E-15,m2a
Raw,(unspecified),"Occupation, annual crop, BJ",,5.31373039,m2a,,5.31E-16,m2a
Raw,(unspecified),"Occupation, annual crop, BM",,2.48999165,m2a,,2.48999E-15,m2a
Raw,(unspecified),"Occupation, annual crop, BN",,6.62355257,m2a,,6.62E-15,m2a
Raw,(unspecified),"Occupation, annual crop, BO",,3.09612456,m2a,,3.10E-15,m2a
Raw,(unspecified),"Occupation, annual crop, BR",,3.09287788,m2a,,3.09E-15,m2a
Raw,(unspecified),"Occupation, annual crop, BS",,3.47240139,m2a,,3.47E-14,m2a
Raw,(unspecified),"Occupation, annual crop, BT",,7.89244019,m2a,,7.89E-15,m2a
Raw,(unspecified),"Occupation, annual crop, BV",,2.48999165,m2a,,2.48999E-15,m2a
Raw,(unspecified),"Occupation, annual crop, BW",,4.33209146,m2a,,4.33E-16,m2a
Raw,(unspecified),"Occupation, annual crop, BY",,1.35538446,m2a,,1.36E-16,m2a
Raw,(unspecified),"Occupation, annual crop, BZ",,1.48240608,m2a,,1.48E-14,m2a
Raw,(unspecified),"Occupation, annual crop, CA",,1.18237437,m2a,,1.18E-16,m2a
Raw,(unspecified),"Occupation, annual crop, CC",,7.76134197,m2a,,7.76134E-13,m2a
Raw,(unspecified),"Occupation, annual crop, CD",,1.67343252,m2a,,1.67E-15,m2a
Raw,(unspecified),"Occupation, annual crop, CF",,6.58840652,m2a,,6.59E-16,m2a
Raw,(unspecified),"Occupation, annual crop, CG",,1.81591202,m2a,,1.82E-15,m2a
Raw,(unspecified),"Occupation, annual crop, CH",,1.59169718,m2a,,1.59E-15,m2a
Raw,(unspecified),"Occupation, annual crop, CI",,2.92965758,m2a,,2.93E-15,m2a
Raw,(unspecified),"Occupation, annual crop, CK",,6.01548750,m2a,,6.01549E-13,m2a
Raw,(unspecified),"Occupation, annual crop, CL",,2.50916395,m2a,,2.51E-15,m2a
Raw,(unspecified),"Occupation, annual crop, CM",,5.33250333,m2a,,5.33E-15,m2a
Raw,(unspecified),"Occupation, annual crop, CN",,1.26604172,m2a,,1.27E-15,m2a
Raw,(unspecified),"Occupation, annual crop, CO",,1.68124431,m2a,,1.68E-14,m2a
Raw,(unspecified),"Occupation, annual crop, conservation tillage",,2.44503832,m2a,,2.45E-15,m2a
Raw,(unspecified),"Occupation, annual crop, conventional tillage",,2.44503832,m2a,,2.45E-15,m2a
Raw,(unspecified),"Occupation, annual crop, CR",,4.46661307,m2a,,4.47E-14,m2a
Raw,(unspecified),"Occupation, annual crop, CS",,5.59144145,m2a,,5.59E-16,m2a
Raw,(unspecified),"Occupation, annual crop, CU",,5.16401586,m2a,,5.16E-14,m2a
Raw,(unspecified),"Occupation, annual crop, CV",,1.37071636,m2a,,1.37E-13,m2a
Raw,(unspecified),"Occupation, annual crop, CX",,7.76134197,m2a,,7.76134E-13,m2a
Raw,(unspecified),"Occupation, annual crop, CY",,2.62596827,m2a,,2.63E-14,m2a
Raw,(unspecified),"Occupation, annual crop, CZ",,2.27923336,m2a,,2.28E-16,m2a
Raw,(unspecified),"Occupation, annual crop, DE",,2.28583253,m2a,,2.29E-16,m2a
Raw,(unspecified),"Occupation, annual crop, DJ",,7.13982979,m2a,,7.14E-16,m2a
Raw,(unspecified),"Occupation, annual crop, DK",,2.29973689,m2a,,2.30E-16,m2a
Raw,(unspecified),"Occupation, annual crop, DM",,3.38111826,m2a,,3.38E-13,m2a
Raw,(unspecified),"Occupation, annual crop, DO",,7.94533181,m2a,,7.95E-14,m2a
Raw,(unspecified),"Occupation, annual crop, DZ",,1.76948818,m2a,,1.77E-16,m2a
Raw,(unspecified),"Occupation, annual crop, EC",,3.42244205,m2a,,3.42E-14,m2a
Raw,(unspecified),"Occupation, annual crop, EE",,9.88720138,m2a,,9.89E-17,m2a
Raw,(unspecified),"Occupation, annual crop, EG",,8.21288003,m2a,,8.21E-17,m2a
Raw,(unspecified),"Occupation, annual crop, EH",,1.08113228,m2a,,1.08E-16,m2a
Raw,(unspecified),"Occupation, annual crop, ER",,9.67733215,m2a,,9.68E-16,m2a
Raw,(unspecified),"Occupation, annual crop, ES",,7.17469144,m2a,,7.17E-15,m2a
Raw,(unspecified),"Occupation, annual crop, ET",,1.81277052,m2a,,1.81E-15,m2a
Raw,(unspecified),"Occupation, annual crop, FI",,6.03085826,m2a,,6.03E-17,m2a
Raw,(unspecified),"Occupation, annual crop, FJ",,1.06247479,m2a,,1.06E-13,m2a
Raw,(unspecified),"Occupation, annual crop, FK",,7.42307198,m2a,,7.42E-16,m2a
Raw,(unspecified),"Occupation, annual crop, flooded crop",,2.48999165,m2a,,2.49E-15,m2a
Raw,(unspecified),"Occupation, annual crop, FM",,2.48999165,m2a,,2.48999E-15,m2a
Raw,(unspecified),"Occupation, annual crop, FO",,1.92531670,m2a,,1.92532E-15,m2a
Raw,(unspecified),"Occupation, annual crop, FR",,1.35389481,m2a,,1.35E-15,m2a
Raw,(unspecified),"Occupation, annual crop, GA",,2.89831500,m2a,,2.90E-15,m2a
Raw,(unspecified),"Occupation, annual crop, GB",,2.37665524,m2a,,2.38E-16,m2a
Raw,(unspecified),"Occupation, annual crop, GD",,3.00186006,m2a,,3.00E-13,m2a
Raw,(unspecified),"Occupation, annual crop, GE",,3.54486702,m2a,,3.54E-15,m2a
Raw,(unspecified),"Occupation, annual crop, GF",,2.52304892,m2a,,2.52E-15,m2a
Raw,(unspecified),"Occupation, annual crop, GH",,2.16920973,m2a,,2.17E-15,m2a
Raw,(unspecified),"Occupation, annual crop, GI",,4.47559566,m2a,,4.48E-15,m2a
Raw,(unspecified),"Occupation, annual crop, GL",,7.66383812,m2a,,7.66384E-18,m2a
Raw,(unspecified),"Occupation, annual crop, GM",,6.58928168,m2a,,6.59E-16,m2a
Raw,(unspecified),"Occupation, annual crop, GN",,2.08396135,m2a,,2.08E-15,m2a
Raw,(unspecified),"Occupation, annual crop, GP",,3.29871703,m2a,,3.30E-13,m2a
Raw,(unspecified),"Occupation, annual crop, GQ",,7.72134552,m2a,,7.72E-15,m2a
Raw,(unspecified),"Occupation, annual crop, GR",,6.26616227,m2a,,6.27E-15,m2a
Raw,(unspecified),"Occupation, annual crop, greenhouse",,2.48999165,m2a,,2.49E-15,m2a
Raw,(unspecified),"Occupation, annual crop, GS",,2.48999165,m2a,,2.48999E-15,m2a
Raw,(unspecified),"Occupation, annual crop, GT",,1.89587894,m2a,,1.90E-14,m2a
Raw,(unspecified),"Occupation, annual crop, GU",,4.46973548,m2a,,4.47E-13,m2a
Raw,(unspecified),"Occupation, annual crop, GW",,1.12570001,m2a,,1.13E-15,m2a
Raw,(unspecified),"Occupation, annual crop, GY",,3.25983558,m2a,,3.26E-15,m2a
Raw,(unspecified),"Occupation, annual crop, HK",,1.26604172,m2a,,1.27E-15,m2a
Raw,(unspecified),"Occupation, annual crop, HM",,2.48999165,m2a,,2.48999E-15,m2a
Raw,(unspecified),"Occupation, annual crop, HN",,1.66485905,m2a,,1.66E-14,m2a
Raw,(unspecified),"Occupation, annual crop, HR",,2.43372375,m2a,,2.43E-15,m2a
Raw,(unspecified),"Occupation, annual crop, HT",,7.46456101,m2a,,7.46E-14,m2a
Raw,(unspecified),"Occupation, annual crop, HU",,2.69178365,m2a,,2.69E-16,m2a
Raw,(unspecified),"Occupation, annual crop, ID",,1.18048358,m2a,,1.18E-14,m2a
Raw,(unspecified),"Occupation, annual crop, IE",,1.83150723,m2a,,1.83E-16,m2a
Raw,(unspecified),"Occupation, annual crop, IL",,1.45833932,m2a,,1.46E-15,m2a
Raw,(unspecified),"Occupation, annual crop, IM",,1.63034717,m2a,,1.63E-16,m2a
Raw,(unspecified),"Occupation, annual crop, IN",,3.58433624,m2a,,3.58E-15,m2a
Raw,(unspecified),"Occupation, annual crop, integrated",,2.48999165,m2a,,2.49E-15,m2a
Raw,(unspecified),"Occupation, annual crop, IO",,3.23697014,m2a,,3.24E-13,m2a
Raw,(unspecified),"Occupation, annual crop, IQ",,2.60100888,m2a,,2.60E-16,m2a
Raw,(unspecified),"Occupation, annual crop, IR",,7.68414994,m2a,,7.68E-16,m2a
Raw,(unspecified),"Occupation, annual crop, irrigated",,2.48999165,m2a,,2.49E-15,m2a
Raw,(unspecified),"Occupation, annual crop, irrigated, extensive",,2.44503832,m2a,,2.45E-15,m2a
Raw,(unspecified),"Occupation, annual crop, irrigated, intensive",,2.48999165,m2a,,2.49E-15,m2a
Raw,(unspecified),"Occupation, annual crop, IS",,8.49661221,m2a,,8.49661E-17,m2a
Raw,(unspecified),"Occupation, annual crop, IT",,4.71666142,m2a,,4.72E-15,m2a
Raw,(unspecified),"Occupation, annual crop, JE",,2.12012993,m2a,,2.12E-16,m2a
Raw,(unspecified),"Occupation, annual crop, JM",,2.07488496,m2a,,2.07E-13,m2a
Raw,(unspecified),"Occupation, annual crop, JO",,5.68484968,m2a,,5.68E-16,m2a
Raw,(unspecified),"Occupation, annual crop, JP",,6.91035043,m2a,,6.91E-15,m2a
Raw,(unspecified),"Occupation, annual crop, KE",,2.54279070,m2a,,2.54E-15,m2a
Raw,(unspecified),"Occupation, annual crop, KG",,8.95730256,m2a,,8.96E-16,m2a
Raw,(unspecified),"Occupation, annual crop, KH",,3.46653453,m2a,,3.47E-15,m2a
Raw,(unspecified),"Occupation, annual crop, KI",,2.14784702,m2a,,2.14785E-13,m2a
Raw,(unspecified),"Occupation, annual crop, KM",,2.46254644,m2a,,2.46E-13,m2a
Raw,(unspecified),"Occupation, annual crop, KN",,1.92723799,m2a,,1.93E-13,m2a
Raw,(unspecified),"Occupation, annual crop, KP",,7.20546234,m2a,,7.21E-16,m2a
Raw,(unspecified),"Occupation, annual crop, KR",,1.59497950,m2a,,1.59E-15,m2a
Raw,(unspecified),"Occupation, annual crop, KW",,1.03127499,m2a,,1.03E-16,m2a
Raw,(unspecified),"Occupation, annual crop, KY",,1.97100387,m2a,,1.97E-14,m2a
Raw,(unspecified),"Occupation, annual crop, KZ",,2.00687998,m2a,,2.01E-16,m2a
Raw,(unspecified),"Occupation, annual crop, LA",,6.09668183,m2a,,6.10E-15,m2a
Raw,(unspecified),"Occupation, annual crop, LB",,5.03066493,m2a,,5.03E-15,m2a
Raw,(unspecified),"Occupation, annual crop, LC",,2.82995665,m2a,,2.83E-13,m2a
Raw,(unspecified),"Occupation, annual crop, LI",,1.87482016,m2a,,1.87E-15,m2a
Raw,(unspecified),"Occupation, annual crop, LK",,4.65044731,m2a,,4.65E-14,m2a
Raw,(unspecified),"Occupation, annual crop, LR",,6.05989326,m2a,,6.06E-15,m2a
Raw,(unspecified),"Occupation, annual crop, LS",,3.92270598,m2a,,3.92E-15,m2a
Raw,(unspecified),"Occupation, annual crop, LT",,1.20569066,m2a,,1.21E-16,m2a
Raw,(unspecified),"Occupation, annual crop, LU",,2.08113533,m2a,,2.08E-16,m2a
Raw,(unspecified),"Occupation, annual crop, LV",,9.88720138,m2a,,9.89E-17,m2a
Raw,(unspecified),"Occupation, annual crop, LY",,5.87062535,m2a,,5.87E-17,m2a
Raw,(unspecified),"Occupation, annual crop, MA",,1.20313926,m2a,,1.20E-15,m2a
Raw,(unspecified),"Occupation, annual crop, MC",,4.13659120,m2a,,4.14E-15,m2a
Raw,(unspecified),"Occupation, annual crop, MD",,1.56971861,m2a,,1.57E-16,m2a
Raw,(unspecified),"Occupation, annual crop, ME",,3.51138020,m2a,,3.51E-15,m2a
Raw,(unspecified),"Occupation, annual crop, MG",,1.87064634,m2a,,1.87E-14,m2a
Raw,(unspecified),"Occupation, annual crop, MH",,2.48999165,m2a,,2.48999E-15,m2a
Raw,(unspecified),"Occupation, annual crop, MK",,2.33845676,m2a,,2.34E-15,m2a
Raw,(unspecified),"Occupation, annual crop, ML",,1.93371972,m2a,,1.93E-16,m2a
Raw,(unspecified),"Occupation, annual crop, MM",,4.25766731,m2a,,4.26E-15,m2a
Raw,(unspecified),"Occupation, annual crop, MN",,1.56571378,m2a,,1.57E-16,m2a
Raw,(unspecified),"Occupation, annual crop, MO",,3.89860699,m2a,,3.90E-15,m2a
Raw,(unspecified),"Occupation, annual crop, MP",,4.46973548,m2a,,4.47E-13,m2a
Raw,(unspecified),"Occupation, annual crop, MQ",,3.06421472,m2a,,3.06E-13,m2a
Raw,(unspecified),"Occupation, annual crop, MR",,1.12227532,m2a,,1.12E-16,m2a
Raw,(unspecified),"Occupation, annual crop, MS",,2.89794293,m2a,,2.90E-13,m2a
Raw,(unspecified),"Occupation, annual crop, MT",,7.46270682,m2a,,7.46E-15,m2a
Raw,(unspecified),"Occupation, annual crop, MU",,9.02588033,m2a,,9.03E-14,m2a
Raw,(unspecified),"Occupation, annual crop, MV",,3.23697014,m2a,,3.24E-13,m2a
Raw,(unspecified),"Occupation, annual crop, MW",,3.06617338,m2a,,3.07E-15,m2a
Raw,(unspecified),"Occupation, annual crop, MX",,9.20862620,m2a,,9.21E-15,m2a
Raw,(unspecified),"Occupation, annual crop, MY",,1.28436941,m2a,,1.28E-14,m2a
Raw,(unspecified),"Occupation, annual crop, MZ",,1.29935459,m2a,,1.30E-15,m2a
Raw,(unspecified),"Occupation, annual crop, NA",,9.09137808,m2a,,9.09E-16,m2a
Raw,(unspecified),"Occupation, annual crop, NC",,4.32809290,m2a,,4.33E-14,m2a
Raw,(unspecified),"Occupation, annual crop, NE",,1.33273729,m2a,,1.33E-16,m2a
Raw,(unspecified),"Occupation, annual crop, NF",,2.48999165,m2a,,2.48999E-15,m2a
Raw,(unspecified),"Occupation, annual crop, NG",,1.79634149,m2a,,1.80E-15,m2a
Raw,(unspecified),"Occupation, annual crop, NI",,1.49984790,m2a,,1.50E-14,m2a
Raw,(unspecified),"Occupation, annual crop, NL",,2.12010763,m2a,,2.12E-16,m2a
Raw,(unspecified),"Occupation, annual crop, NO",,8.62230041,m2a,,8.62E-17,m2a
Raw,(unspecified),"Occupation, annual crop, non-irrigated",,2.48999165,m2a,,2.49E-15,m2a
Raw,(unspecified),"Occupation, annual crop, non-irrigated, diverse-intensive",,2.48999165,m2a,,2.49E-15,m2a
Raw,(unspecified),"Occupation, annual crop, non-irrigated, extensive",,2.18002030,m2a,,2.18E-15,m2a
Raw,(unspecified),"Occupation, annual crop, non-irrigated, fallow",,2.18002030,m2a,,2.18E-15,m2a
Raw,(unspecified),"Occupation, annual crop, non-irrigated, intensive",,2.48999165,m2a,,2.49E-15,m2a
Raw,(unspecified),"Occupation, annual crop, non-irrigated, monotone-intensive",,2.48999165,m2a,,2.49E-15,m2a
Raw,(unspecified),"Occupation, annual crop, NP",,5.02932576,m2a,,5.03E-15,m2a
Raw,(unspecified),"Occupation, annual crop, NR",,2.48999165,m2a,,2.49E-15,m2a
Raw,(unspecified),"Occupation, annual crop, NU",,5.24454923,m2a,,5.24E-13,m2a
Raw,(unspecified),"Occupation, annual crop, NZ",,8.60758156,m2a,,8.61E-15,m2a
Raw,(unspecified),"Occupation, annual crop, OM",,3.97237291,m2a,,3.97E-16,m2a
Raw,(unspecified),"Occupation, annual crop, organic",,2.44503832,m2a,,2.45E-15,m2a
Raw,(unspecified),"Occupation, annual crop, PA",,4.58125726,m2a,,4.58E-14,m2a
Raw,(unspecified),"Occupation, annual crop, PE",,8.45371647,m2a,,8.45E-15,m2a
Raw,(unspecified),"Occupation, annual crop, PF",,2.48999165,m2a,,2.48999E-15,m2a
Raw,(unspecified),"Occupation, annual crop, PG",,2.21469955,m2a,,2.21E-14,m2a
Raw,(unspecified),"Occupation, annual crop, PH",,3.64585898,m2a,,3.65E-14,m2a
Raw,(unspecified),"Occupation, annual crop, PK",,5.53392545,m2a,,5.53E-16,m2a
Raw,(unspecified),"Occupation, annual crop, PL",,2.55396159,m2a,,2.55E-16,m2a
Raw,(unspecified),"Occupation, annual crop, PM",,2.48999165,m2a,,2.49E-15,m2a
Raw,(unspecified),"Occupation, annual crop, PR",,1.77533999,m2a,,1.78E-13,m2a
Raw,(unspecified),"Occupation, annual crop, PS",,3.28250826,m2a,,3.28E-15,m2a
Raw,(unspecified),"Occupation, annual crop, PT",,2.80332616,m2a,,2.80E-14,m2a
Raw,(unspecified),"Occupation, annual crop, PW",,3.96792561,m2a,,3.97E-13,m2a
Raw,(unspecified),"Occupation, annual crop, PY",,1.41316426,m2a,,1.41E-15,m2a
Raw,(unspecified),"Occupation, annual crop, QA",,8.57304779,m2a,,8.57E-17,m2a
Raw,(unspecified),"Occupation, annual crop, RAF",,2.48999165,m2a,,2.48999E-15,m2a
Raw,(unspecified),"Occupation, annual crop, RAS",,2.48999165,m2a,,2.48999E-15,m2a
Raw,(unspecified),"Occupation, annual crop, RE",,9.02588033,m2a,,9.03E-14,m2a
Raw,(unspecified),"Occupation, annual crop, reduced tillage",,2.44503832,m2a,,2.45E-15,m2a
Raw,(unspecified),"Occupation, annual crop, RER",,2.48999165,m2a,,2.48999E-15,m2a
Raw,(unspecified),"Occupation, annual crop, RLA",,2.48999165,m2a,,2.48999E-15,m2a
Raw,(unspecified),"Occupation, annual crop, RNA",,2.48999165,m2a,,2.48999E-15,m2a
Raw,(unspecified),"Occupation, annual crop, RO",,5.46858506,m2a,,5.47E-16,m2a
Raw,(unspecified),"Occupation, annual crop, RS",,5.59144145,m2a,,5.59E-16,m2a
Raw,(unspecified),"Occupation, annual crop, RU",,1.19408878,m2a,,1.19E-16,m2a
Raw,(unspecified),"Occupation, annual crop, RW",,9.80931284,m2a,,9.81E-15,m2a
Raw,(unspecified),"Occupation, annual crop, SA",,1.53501219,m2a,,1.54E-16,m2a
Raw,(unspecified),"Occupation, annual crop, SB",,5.96997290,m2a,,5.97E-14,m2a
Raw,(unspecified),"Occupation, annual crop, SC",,5.26485746,m2a,,5.26486E-13,m2a
Raw,(unspecified),"Occupation, annual crop, SD",,2.60217268,m2a,,2.60E-16,m2a
Raw,(unspecified),"Occupation, annual crop, SE",,7.57671099,m2a,,7.58E-17,m2a
Raw,(unspecified),"Occupation, annual crop, SG",,1.37929870,m2a,,1.38E-14,m2a
Raw,(unspecified),"Occupation, annual crop, SH",,1.04778794,m2a,,1.04779E-12,m2a
Raw,(unspecified),"Occupation, annual crop, SI",,1.58243037,m2a,,1.58E-15,m2a
Raw,(unspecified),"Occupation, annual crop, SJ",,1.77106155,m2a,,1.77E-17,m2a
Raw,(unspecified),"Occupation, annual crop, SK",,7.03165885,m2a,,7.03E-16,m2a
Raw,(unspecified),"Occupation, annual crop, SL",,4.41359564,m2a,,4.41E-15,m2a
Raw,(unspecified),"Occupation, annual crop, SM",,4.13659120,m2a,,4.14E-15,m2a
Raw,(unspecified),"Occupation, annual crop, SN",,4.22291646,m2a,,4.22E-16,m2a
Raw,(unspecified),"Occupation, annual crop, SO",,1.07170287,m2a,,1.07E-15,m2a
Raw,(unspecified),"Occupation, annual crop, SR",,2.78901098,m2a,,2.79E-15,m2a
Raw,(unspecified),"Occupation, annual crop, SS",,2.60217268,m2a,,2.60E-16,m2a
Raw,(unspecified),"Occupation, annual crop, ST",,2.14250517,m2a,,2.14E-12,m2a
Raw,(unspecified),"Occupation, annual crop, SV",,1.61557497,m2a,,1.62E-14,m2a
Raw,(unspecified),"Occupation, annual crop, SY",,1.40548420,m2a,,1.41E-15,m2a
Raw,(unspecified),"Occupation, annual crop, SZ",,3.41216682,m2a,,3.41E-15,m2a
Raw,(unspecified),"Occupation, annual crop, TC",,3.42130976,m2a,,3.42E-14,m2a
Raw,(unspecified),"Occupation, annual crop, TD",,1.65944531,m2a,,1.66E-16,m2a
Raw,(unspecified),"Occupation, annual crop, TF",,5.76133413,m2a,,5.76133E-16,m2a
Raw,(unspecified),"Occupation, annual crop, TG",,1.05843567,m2a,,1.06E-15,m2a
Raw,(unspecified),"Occupation, annual crop, TH",,3.75143931,m2a,,3.75E-15,m2a
Raw,(unspecified),"Occupation, annual crop, TJ",,8.51853654,m2a,,8.52E-16,m2a
Raw,(unspecified),"Occupation, annual crop, TK",,2.48999165,m2a,,2.49E-15,m2a
Raw,(unspecified),"Occupation, annual crop, TL",,2.48999165,m2a,,2.49E-15,m2a
Raw,(unspecified),"Occupation, annual crop, TM",,3.80363255,m2a,,3.80E-16,m2a
Raw,(unspecified),"Occupation, annual crop, TN",,6.71192118,m2a,,6.71E-16,m2a
Raw,(unspecified),"Occupation, annual crop, TO",,5.24454923,m2a,,5.24E-13,m2a
Raw,(unspecified),"Occupation, annual crop, TR",,2.78875417,m2a,,2.79E-15,m2a
Raw,(unspecified),"Occupation, annual crop, TT",,1.97390085,m2a,,1.97E-13,m2a
Raw,(unspecified),"Occupation, annual crop, TV",,8.04900251,m2a,,8.049E-13,m2a
Raw,(unspecified),"Occupation, annual crop, TW",,6.28984189,m2a,,6.29E-14,m2a
Raw,(unspecified),"Occupation, annual crop, TZ",,3.37444288,m2a,,3.37E-15,m2a
Raw,(unspecified),"Occupation, annual crop, UA",,3.26672530,m2a,,3.27E-16,m2a
Raw,(unspecified),"Occupation, annual crop, UG",,3.53766326,m2a,,3.54E-15,m2a
Raw,(unspecified),"Occupation, annual crop, UM",,2.48999165,m2a,,2.49E-15,m2a
Raw,(unspecified),"Occupation, annual crop, UN-OCEANIA",,2.48999165,m2a,,2.48999E-15,m2a
Raw,(unspecified),"Occupation, annual crop, US",,1.11158722,m2a,,1.11E-15,m2a
Raw,(unspecified),"Occupation, annual crop, UY",,1.32851583,m2a,,1.33E-15,m2a
Raw,(unspecified),"Occupation, annual crop, UZ",,3.84528009,m2a,,3.85E-16,m2a
Raw,(unspecified),"Occupation, annual crop, VA",,4.71666142,m2a,,4.72E-15,m2a
Raw,(unspecified),"Occupation, annual crop, VC",,2.29513503,m2a,,2.30E-13,m2a
Raw,(unspecified),"Occupation, annual crop, VE",,7.63160421,m2a,,7.63E-15,m2a
Raw,(unspecified),"Occupation, annual crop, VG",,1.69811185,m2a,,1.70E-13,m2a
Raw,(unspecified),"Occupation, annual crop, VI",,2.71382291,m2a,,2.71E-13,m2a
Raw,(unspecified),"Occupation, annual crop, VN",,6.40163247,m2a,,6.40E-15,m2a
Raw,(unspecified),"Occupation, annual crop, VU",,3.14541309,m2a,,3.15E-14,m2a
Raw,(unspecified),"Occupation, annual crop, WF",,1.24008324,m2a,,1.24E-13,m2a
Raw,(unspecified),"Occupation, annual crop, WS",,2.60983743,m2a,,2.61E-13,m2a
Raw,(unspecified),"Occupation, annual crop, YE",,1.13210992,m2a,,1.13E-15,m2a
Raw,(unspecified),"Occupation, annual crop, YT",,2.46254644,m2a,,2.46E-13,m2a
Raw,(unspecified),"Occupation, annual crop, ZA",,7.96415775,m2a,,7.96E-15,m2a
Raw,(unspecified),"Occupation, annual crop, ZM",,9.38797138,m2a,,9.39E-16,m2a
Raw,(unspecified),"Occupation, annual crop, ZW",,1.14189425,m2a,,1.14E-15,m2a
Raw,(unspecified),"Occupation, artificial areas",,2.76155314,m2a,,2.76E-15,m2a
Raw,(unspecified),"Occupation, construction site",,2.76155314,m2a,,2.76E-15,m2a
Raw,(unspecified),"Occupation, cropland fallow (non-use)",,2.18002030,m2a,,2.18E-15,m2a
Raw,(unspecified),"Occupation, dump site",,2.76155314,m2a,,2.76E-15,m2a
Raw,(unspecified),"Occupation, dump site, benthos",,2.76155314,m2a,,2.76E-15,m2a
Raw,(unspecified),"Occupation, forest, extensive",,1.76660798,m2a,,1.77E-15,m2a
Raw,(unspecified),"Occupation, forest, extensive, AD",,4.85316117,m2a,,4.85316E-15,m2a
Raw,(unspecified),"Occupation, forest, extensive, AE",,1.28326149,m2a,,1.28326E-16,m2a
Raw,(unspecified),"Occupation, forest, extensive, AF",,3.85829944,m2a,,3.8583E-16,m2a
Raw,(unspecified),"Occupation, forest, extensive, AG",,7.41502069,m2a,,7.41502E-14,m2a
Raw,(unspecified),"Occupation, forest, extensive, AI",,4.91648029,m2a,,4.91648E-14,m2a
Raw,(unspecified),"Occupation, forest, extensive, AL",,5.01050415,m2a,,5.0105E-15,m2a
Raw,(unspecified),"Occupation, forest, extensive, AM",,2.17131701,m2a,,2.17132E-15,m2a
Raw,(unspecified),"Occupation, forest, extensive, AO",,7.79157009,m2a,,7.79157E-16,m2a
Raw,(unspecified),"Occupation, forest, extensive, AQ",,1.76660798,m2a,,1.77E-15,m2a
Raw,(unspecified),"Occupation, forest, extensive, AR",,8.72153490,m2a,,8.72153E-16,m2a
Raw,(unspecified),"Occupation, forest, extensive, AS",,1.48655614,m2a,,1.48656E-13,m2a
Raw,(unspecified),"Occupation, forest, extensive, AT",,9.90082388,m2a,,9.90082E-16,m2a
Raw,(unspecified),"Occupation, forest, extensive, AU",,1.10085779,m2a,,1.10086E-15,m2a
Raw,(unspecified),"Occupation, forest, extensive, AW",,8.86869136,m2a,,8.86869E-15,m2a
Raw,(unspecified),"Occupation, forest, extensive, AZ",,1.98950267,m2a,,1.9895E-15,m2a
Raw,(unspecified),"Occupation, forest, extensive, BA",,1.12705683,m2a,,1.12706E-15,m2a
Raw,(unspecified),"Occupation, forest, extensive, BB",,4.65942099,m2a,,4.65942E-14,m2a
Raw,(unspecified),"Occupation, forest, extensive, BD",,1.17457660,m2a,,1.17458E-15,m2a
Raw,(unspecified),"Occupation, forest, extensive, BE",,2.25535706,m2a,,2.25536E-16,m2a
Raw,(unspecified),"Occupation, forest, extensive, BF",,3.72498133,m2a,,3.72498E-16,m2a
Raw,(unspecified),"Occupation, forest, extensive, BG",,1.02321534,m2a,,1.02322E-15,m2a
Raw,(unspecified),"Occupation, forest, extensive, BH",,8.72771545,m2a,,8.72772E-17,m2a
Raw,(unspecified),"Occupation, forest, extensive, BI",,5.04660102,m2a,,5.0466E-15,m2a
Raw,(unspecified),"Occupation, forest, extensive, BJ",,5.00102309,m2a,,5.00102E-16,m2a
Raw,(unspecified),"Occupation, forest, extensive, BM",,1.76660798,m2a,,1.77E-15,m2a
Raw,(unspecified),"Occupation, forest, extensive, BN",,5.20725821,m2a,,5.20726E-15,m2a
Raw,(unspecified),"Occupation, forest, extensive, BO",,2.73082521,m2a,,2.73083E-15,m2a
Raw,(unspecified),"Occupation, forest, extensive, BR",,2.36452047,m2a,,2.36452E-15,m2a
Raw,(unspecified),"Occupation, forest, extensive, BS",,2.04039030,m2a,,2.04039E-14,m2a
Raw,(unspecified),"Occupation, forest, extensive, BT",,6.38866298,m2a,,6.38866E-15,m2a
Raw,(unspecified),"Occupation, forest, extensive, BV",,1.76660798,m2a,,1.77E-15,m2a
Raw,(unspecified),"Occupation, forest, extensive, BW",,3.92946708,m2a,,3.92947E-16,m2a
Raw,(unspecified),"Occupation, forest, extensive, BY",,1.50736164,m2a,,1.50736E-16,m2a
Raw,(unspecified),"Occupation, forest, extensive, BZ",,1.00832940,m2a,,1.00833E-14,m2a
Raw,(unspecified),"Occupation, forest, extensive, CA",,1.10835122,m2a,,1.10835E-17,m2a
Raw,(unspecified),"Occupation, forest, extensive, CC",,5.18674866,m2a,,5.18675E-13,m2a
Raw,(unspecified),"Occupation, forest, extensive, CD",,1.48963366,m2a,,1.48963E-15,m2a
Raw,(unspecified),"Occupation, forest, extensive, CF",,6.28704138,m2a,,6.28704E-16,m2a
Raw,(unspecified),"Occupation, forest, extensive, CG",,1.57358692,m2a,,1.57359E-15,m2a
Raw,(unspecified),"Occupation, forest, extensive, CH",,9.73049763,m2a,,9.7305E-16,m2a
Raw,(unspecified),"Occupation, forest, extensive, CI",,2.68441961,m2a,,2.68442E-15,m2a
Raw,(unspecified),"Occupation, forest, extensive, CK",,3.43118777,m2a,,3.43119E-13,m2a
Raw,(unspecified),"Occupation, forest, extensive, CL",,2.02422595,m2a,,2.02423E-15,m2a
Raw,(unspecified),"Occupation, forest, extensive, CM",,4.26722432,m2a,,4.26722E-15,m2a
Raw,(unspecified),"Occupation, forest, extensive, CN",,1.02193962,m2a,,1.02194E-15,m2a
Raw,(unspecified),"Occupation, forest, extensive, CO",,1.19043851,m2a,,1.19044E-14,m2a
Raw,(unspecified),"Occupation, forest, extensive, CR",,3.36267805,m2a,,3.36268E-14,m2a
Raw,(unspecified),"Occupation, forest, extensive, CS",,5.13121430,m2a,,5.13121E-16,m2a
Raw,(unspecified),"Occupation, forest, extensive, CU",,3.18710299,m2a,,3.1871E-14,m2a
Raw,(unspecified),"Occupation, forest, extensive, CV",,7.03239755,m2a,,7.0324E-14,m2a
Raw,(unspecified),"Occupation, forest, extensive, CX",,5.18674866,m2a,,5.18675E-13,m2a
Raw,(unspecified),"Occupation, forest, extensive, CY",,1.32083668,m2a,,1.32084E-14,m2a
Raw,(unspecified),"Occupation, forest, extensive, CZ",,2.22239251,m2a,,2.22239E-16,m2a
Raw,(unspecified),"Occupation, forest, extensive, DE",,2.21417846,m2a,,2.21418E-16,m2a
Raw,(unspecified),"Occupation, forest, extensive, DJ",,6.43003567,m2a,,6.43004E-16,m2a
Raw,(unspecified),"Occupation, forest, extensive, DK",,1.83157321,m2a,,1.83157E-16,m2a
Raw,(unspecified),"Occupation, forest, extensive, DM",,1.94576835,m2a,,1.94577E-13,m2a
Raw,(unspecified),"Occupation, forest, extensive, DO",,5.11590090,m2a,,5.1159E-14,m2a
Raw,(unspecified),"Occupation, forest, extensive, DZ",,1.39937680,m2a,,1.39938E-16,m2a
Raw,(unspecified),"Occupation, forest, extensive, EC",,2.53102619,m2a,,2.53103E-14,m2a
Raw,(unspecified),"Occupation, forest, extensive, EE",,1.09120915,m2a,,1.09121E-16,m2a
Raw,(unspecified),"Occupation, forest, extensive, EG",,7.68475313,m2a,,7.68475E-17,m2a
Raw,(unspecified),"Occupation, forest, extensive, EH",,9.89446001,m2a,,9.89446E-17,m2a
Raw,(unspecified),"Occupation, forest, extensive, ER",,8.37817825,m2a,,8.37818E-16,m2a
Raw,(unspecified),"Occupation, forest, extensive, ES",,3.43430598,m2a,,3.43431E-15,m2a
Raw,(unspecified),"Occupation, forest, extensive, ET",,1.58537276,m2a,,1.58537E-15,m2a
Raw,(unspecified),"Occupation, forest, extensive, FI",,7.25089531,m2a,,7.2509E-17,m2a
Raw,(unspecified),"Occupation, forest, extensive, FJ",,4.99110388,m2a,,4.9911E-14,m2a
Raw,(unspecified),"Occupation, forest, extensive, FK",,7.02043544,m2a,,7.02044E-16,m2a
Raw,(unspecified),"Occupation, forest, extensive, FM",,1.76660798,m2a,,1.77E-15,m2a
Raw,(unspecified),"Occupation, forest, extensive, FO",,8.61339599,m2a,,8.6134E-16,m2a
Raw,(unspecified),"Occupation, forest, extensive, FR",,7.88949625,m2a,,7.8895E-16,m2a
Raw,(unspecified),"Occupation, forest, extensive, GA",,2.37730452,m2a,,2.3773E-15,m2a
Raw,(unspecified),"Occupation, forest, extensive, GB",,1.76945015,m2a,,1.76945E-16,m2a
Raw,(unspecified),"Occupation, forest, extensive, GD",,1.72630003,m2a,,1.7263E-13,m2a
Raw,(unspecified),"Occupation, forest, extensive, GE",,2.35059524,m2a,,2.3506E-15,m2a
Raw,(unspecified),"Occupation, forest, extensive, GF",,2.03986895,m2a,,2.03987E-15,m2a
Raw,(unspecified),"Occupation, forest, extensive, GH",,1.97543233,m2a,,1.97543E-15,m2a
Raw,(unspecified),"Occupation, forest, extensive, GI",,2.50872619,m2a,,2.50873E-15,m2a
Raw,(unspecified),"Occupation, forest, extensive, GL",,2.17818850,m2a,,2.17819E-17,m2a
Raw,(unspecified),"Occupation, forest, extensive, GM",,6.20242304,m2a,,6.20242E-16,m2a
Raw,(unspecified),"Occupation, forest, extensive, GN",,1.91016890,m2a,,1.91017E-15,m2a
Raw,(unspecified),"Occupation, forest, extensive, GP",,1.80118409,m2a,,1.80118E-13,m2a
Raw,(unspecified),"Occupation, forest, extensive, GQ",,5.53543495,m2a,,5.53543E-15,m2a
Raw,(unspecified),"Occupation, forest, extensive, GR",,3.46674164,m2a,,3.46674E-15,m2a
Raw,(unspecified),"Occupation, forest, extensive, GS",,1.76660798,m2a,,1.77E-15,m2a
Raw,(unspecified),"Occupation, forest, extensive, GT",,1.45976995,m2a,,1.45977E-14,m2a
Raw,(unspecified),"Occupation, forest, extensive, GU",,2.62618732,m2a,,2.62619E-13,m2a
Raw,(unspecified),"Occupation, forest, extensive, GW",,1.03741004,m2a,,1.03741E-15,m2a
Raw,(unspecified),"Occupation, forest, extensive, GY",,2.55770064,m2a,,2.5577E-15,m2a
Raw,(unspecified),"Occupation, forest, extensive, HK",,1.02193962,m2a,,1.02194E-15,m2a
Raw,(unspecified),"Occupation, forest, extensive, HM",,1.76660798,m2a,,1.77E-15,m2a
Raw,(unspecified),"Occupation, forest, extensive, HN",,1.34105311,m2a,,1.34105E-14,m2a
Raw,(unspecified),"Occupation, forest, extensive, HR",,1.47262318,m2a,,1.47262E-15,m2a
Raw,(unspecified),"Occupation, forest, extensive, HT",,4.84522230,m2a,,4.84522E-14,m2a
Raw,(unspecified),"Occupation, forest, extensive, HU",,2.69893667,m2a,,2.69894E-16,m2a
Raw,(unspecified),"Occupation, forest, extensive, ID",,9.48074744,m2a,,9.48075E-15,m2a
Raw,(unspecified),"Occupation, forest, extensive, IE",,1.42729756,m2a,,1.4273E-16,m2a
Raw,(unspecified),"Occupation, forest, extensive, IL",,9.35013370,m2a,,9.35013E-16,m2a
Raw,(unspecified),"Occupation, forest, extensive, IM",,1.36632980,m2a,,1.36633E-16,m2a
Raw,(unspecified),"Occupation, forest, extensive, IN",,2.72428845,m2a,,2.72429E-15,m2a
Raw,(unspecified),"Occupation, forest, extensive, IO",,1.62714799,m2a,,1.62715E-13,m2a
Raw,(unspecified),"Occupation, forest, extensive, IQ",,2.21501640,m2a,,2.21502E-16,m2a
Raw,(unspecified),"Occupation, forest, extensive, IR",,5.80366067,m2a,,5.80366E-16,m2a
Raw,(unspecified),"Occupation, forest, extensive, IS",,8.02596038,m2a,,8.02596E-17,m2a
Raw,(unspecified),"Occupation, forest, extensive, IT",,2.72290171,m2a,,2.7229E-15,m2a
Raw,(unspecified),"Occupation, forest, extensive, JE",,2.29665082,m2a,,2.29665E-16,m2a
Raw,(unspecified),"Occupation, forest, extensive, JM",,1.27911508,m2a,,1.27912E-13,m2a
Raw,(unspecified),"Occupation, forest, extensive, JO",,3.93162135,m2a,,3.93162E-16,m2a
Raw,(unspecified),"Occupation, forest, extensive, JP",,4.13514493,m2a,,4.13514E-15,m2a
Raw,(unspecified),"Occupation, forest, extensive, KE",,2.19172792,m2a,,2.19173E-15,m2a
Raw,(unspecified),"Occupation, forest, extensive, KG",,5.78876406,m2a,,5.78876E-16,m2a
Raw,(unspecified),"Occupation, forest, extensive, KH",,2.93149102,m2a,,2.93149E-15,m2a
Raw,(unspecified),"Occupation, forest, extensive, KI",,1.07919807,m2a,,1.0792E-13,m2a
Raw,(unspecified),"Occupation, forest, extensive, KM",,1.81797957,m2a,,1.81798E-13,m2a
Raw,(unspecified),"Occupation, forest, extensive, KN",,1.05898787,m2a,,1.05899E-13,m2a
Raw,(unspecified),"Occupation, forest, extensive, KP",,5.90334883,m2a,,5.90335E-16,m2a
Raw,(unspecified),"Occupation, forest, extensive, KR",,1.26782614,m2a,,1.26783E-15,m2a
Raw,(unspecified),"Occupation, forest, extensive, KW",,8.58285856,m2a,,8.58286E-17,m2a
Raw,(unspecified),"Occupation, forest, extensive, KY",,1.36843681,m2a,,1.36844E-14,m2a
Raw,(unspecified),"Occupation, forest, extensive, KZ",,1.66156329,m2a,,1.66156E-16,m2a
Raw,(unspecified),"Occupation, forest, extensive, LA",,5.36704656,m2a,,5.36705E-15,m2a
Raw,(unspecified),"Occupation, forest, extensive, LB",,3.05261263,m2a,,3.05261E-15,m2a
Raw,(unspecified),"Occupation, forest, extensive, LC",,1.62678259,m2a,,1.62678E-13,m2a
Raw,(unspecified),"Occupation, forest, extensive, LI",,1.12813022,m2a,,1.12813E-15,m2a
Raw,(unspecified),"Occupation, forest, extensive, LK",,3.77060836,m2a,,3.77061E-14,m2a
Raw,(unspecified),"Occupation, forest, extensive, LR",,5.67263571,m2a,,5.67264E-15,m2a
Raw,(unspecified),"Occupation, forest, extensive, LS",,2.69907594,m2a,,2.69908E-15,m2a
Raw,(unspecified),"Occupation, forest, extensive, LT",,1.33746388,m2a,,1.33746E-16,m2a
Raw,(unspecified),"Occupation, forest, extensive, LU",,2.13615279,m2a,,2.13615E-16,m2a
Raw,(unspecified),"Occupation, forest, extensive, LV",,1.09120915,m2a,,1.09121E-16,m2a
Raw,(unspecified),"Occupation, forest, extensive, LY",,5.37863253,m2a,,5.37863E-17,m2a
Raw,(unspecified),"Occupation, forest, extensive, MA",,9.00534356,m2a,,9.00534E-16,m2a
Raw,(unspecified),"Occupation, forest, extensive, MC",,2.34505182,m2a,,2.34505E-15,m2a
Raw,(unspecified),"Occupation, forest, extensive, MD",,1.69228396,m2a,,1.69228E-16,m2a
Raw,(unspecified),"Occupation, forest, extensive, ME",,2.13757575,m2a,,2.13758E-15,m2a
Raw,(unspecified),"Occupation, forest, extensive, MG",,1.43829096,m2a,,1.43829E-14,m2a
Raw,(unspecified),"Occupation, forest, extensive, MH",,1.76660798,m2a,,1.77E-15,m2a
Raw,(unspecified),"Occupation, forest, extensive, MK",,1.41124276,m2a,,1.41124E-15,m2a
Raw,(unspecified),"Occupation, forest, extensive, ML",,1.88370394,m2a,,1.8837E-16,m2a
Raw,(unspecified),"Occupation, forest, extensive, MM",,3.54832233,m2a,,3.54832E-15,m2a
Raw,(unspecified),"Occupation, forest, extensive, MN",,1.45861343,m2a,,1.45861E-16,m2a
Raw,(unspecified),"Occupation, forest, extensive, MO",,3.21527945,m2a,,3.21528E-15,m2a
Raw,(unspecified),"Occupation, forest, extensive, MP",,2.62618732,m2a,,2.62619E-13,m2a
Raw,(unspecified),"Occupation, forest, extensive, MQ",,1.76624534,m2a,,1.76625E-13,m2a
Raw,(unspecified),"Occupation, forest, extensive, MR",,1.09224942,m2a,,1.09225E-16,m2a
Raw,(unspecified),"Occupation, forest, extensive, MS",,1.59648904,m2a,,1.59649E-13,m2a
Raw,(unspecified),"Occupation, forest, extensive, MT",,4.24233333,m2a,,4.24233E-15,m2a
Raw,(unspecified),"Occupation, forest, extensive, MU",,7.27681133,m2a,,7.27681E-14,m2a
Raw,(unspecified),"Occupation, forest, extensive, MV",,1.62714799,m2a,,1.62715E-13,m2a
Raw,(unspecified),"Occupation, forest, extensive, MW",,2.54074278,m2a,,2.54074E-15,m2a
Raw,(unspecified),"Occupation, forest, extensive, MX",,6.63754019,m2a,,6.63754E-15,m2a
Raw,(unspecified),"Occupation, forest, extensive, MY",,9.73893971,m2a,,9.73894E-15,m2a
Raw,(unspecified),"Occupation, forest, extensive, MZ",,1.04776310,m2a,,1.04776E-15,m2a
Raw,(unspecified),"Occupation, forest, extensive, NA",,6.72154377,m2a,,6.72154E-16,m2a
Raw,(unspecified),"Occupation, forest, extensive, NC",,3.26646022,m2a,,3.26646E-14,m2a
Raw,(unspecified),"Occupation, forest, extensive, NE",,1.30449856,m2a,,1.3045E-16,m2a
Raw,(unspecified),"Occupation, forest, extensive, NF",,6.56926754,m2a,,6.56927E-14,m2a
Raw,(unspecified),"Occupation, forest, extensive, NG",,1.47215673,m2a,,1.47216E-15,m2a
Raw,(unspecified),"Occupation, forest, extensive, NI",,1.14968286,m2a,,1.14968E-14,m2a
Raw,(unspecified),"Occupation, forest, extensive, NL",,2.29655906,m2a,,2.29656E-16,m2a
Raw,(unspecified),"Occupation, forest, extensive, NO",,7.93597700,m2a,,7.93598E-17,m2a
Raw,(unspecified),"Occupation, forest, extensive, NP",,4.26553544,m2a,,4.26554E-15,m2a
Raw,(unspecified),"Occupation, forest, extensive, NR",,1.76660798,m2a,,1.76661E-15,m2a
Raw,(unspecified),"Occupation, forest, extensive, NU",,2.66290002,m2a,,2.6629E-13,m2a
Raw,(unspecified),"Occupation, forest, extensive, NZ",,4.79224256,m2a,,4.79224E-15,m2a
Raw,(unspecified),"Occupation, forest, extensive, OM",,3.00338770,m2a,,3.00339E-16,m2a
Raw,(unspecified),"Occupation, forest, extensive, PA",,3.25816714,m2a,,3.25817E-14,m2a
Raw,(unspecified),"Occupation, forest, extensive, PE",,6.96136058,m2a,,6.96136E-15,m2a
Raw,(unspecified),"Occupation, forest, extensive, PF",,3.44539084,m2a,,3.44539E-15,m2a
Raw,(unspecified),"Occupation, forest, extensive, PG",,1.49632431,m2a,,1.49632E-14,m2a
Raw,(unspecified),"Occupation, forest, extensive, PH",,2.51557180,m2a,,2.51557E-14,m2a
Raw,(unspecified),"Occupation, forest, extensive, PK",,4.81231380,m2a,,4.81231E-16,m2a
Raw,(unspecified),"Occupation, forest, extensive, PL",,2.16146261,m2a,,2.16146E-16,m2a
Raw,(unspecified),"Occupation, forest, extensive, PM",,1.76660798,m2a,,1.76661E-15,m2a
Raw,(unspecified),"Occupation, forest, extensive, PR",,1.08702966,m2a,,1.08703E-13,m2a
Raw,(unspecified),"Occupation, forest, extensive, PS",,2.06709150,m2a,,2.06709E-15,m2a
Raw,(unspecified),"Occupation, forest, extensive, PT",,7.86979137,m2a,,7.86979E-15,m2a
Raw,(unspecified),"Occupation, forest, extensive, PW",,2.23191079,m2a,,2.23191E-13,m2a
Raw,(unspecified),"Occupation, forest, extensive, PY",,1.32782196,m2a,,1.32782E-15,m2a
Raw,(unspecified),"Occupation, forest, extensive, QA",,7.43850234,m2a,,7.4385E-17,m2a
Raw,(unspecified),"Occupation, forest, extensive, RAF",,1.76660798,m2a,,1.77E-15,m2a
Raw,(unspecified),"Occupation, forest, extensive, RAS",,1.76660798,m2a,,1.77E-15,m2a
Raw,(unspecified),"Occupation, forest, extensive, RE",,7.27681133,m2a,,7.27681E-14,m2a
Raw,(unspecified),"Occupation, forest, extensive, RER",,1.76660798,m2a,,1.77E-15,m2a
Raw,(unspecified),"Occupation, forest, extensive, RLA",,1.76660798,m2a,,1.77E-15,m2a
Raw,(unspecified),"Occupation, forest, extensive, RNA",,1.76660798,m2a,,1.77E-15,m2a
Raw,(unspecified),"Occupation, forest, extensive, RO",,3.89950161,m2a,,3.8995E-16,m2a
Raw,(unspecified),"Occupation, forest, extensive, RS",,5.13121430,m2a,,5.13121E-16,m2a
Raw,(unspecified),"Occupation, forest, extensive, RU",,1.09621709,m2a,,1.09622E-16,m2a
Raw,(unspecified),"Occupation, forest, extensive, RW",,8.86797852,m2a,,8.86798E-15,m2a
Raw,(unspecified),"Occupation, forest, extensive, SA",,1.27438106,m2a,,1.27438E-16,m2a
Raw,(unspecified),"Occupation, forest, extensive, SB",,3.85050246,m2a,,3.8505E-14,m2a
Raw,(unspecified),"Occupation, forest, extensive, SC",,3.70355934,m2a,,3.70356E-13,m2a
Raw,(unspecified),"Occupation, forest, extensive, SD",,2.47422293,m2a,,2.47422E-16,m2a
Raw,(unspecified),"Occupation, forest, extensive, SE",,8.38073877,m2a,,8.38074E-17,m2a
Raw,(unspecified),"Occupation, forest, extensive, SG",,1.06749448,m2a,,1.06749E-14,m2a
Raw,(unspecified),"Occupation, forest, extensive, SH",,6.14772109,m2a,,6.14772E-14,m2a
Raw,(unspecified),"Occupation, forest, extensive, SI",,1.01885504,m2a,,1.01886E-15,m2a
Raw,(unspecified),"Occupation, forest, extensive, SJ",,1.49216043,m2a,,1.49216E-17,m2a
Raw,(unspecified),"Occupation, forest, extensive, SK",,4.48511028,m2a,,4.48511E-16,m2a
Raw,(unspecified),"Occupation, forest, extensive, SL",,4.11871976,m2a,,4.11872E-15,m2a
Raw,(unspecified),"Occupation, forest, extensive, SM",,2.34505182,m2a,,2.34505E-15,m2a
Raw,(unspecified),"Occupation, forest, extensive, SN",,4.05738911,m2a,,4.05739E-16,m2a
Raw,(unspecified),"Occupation, forest, extensive, SO",,1.00382382,m2a,,1.00382E-15,m2a
Raw,(unspecified),"Occupation, forest, extensive, SR",,2.17373562,m2a,,2.17374E-15,m2a
Raw,(unspecified),"Occupation, forest, extensive, SS",,2.47422293,m2a,,2.47422E-16,m2a
Raw,(unspecified),"Occupation, forest, extensive, ST",,1.23504479,m2a,,1.23504E-12,m2a
Raw,(unspecified),"Occupation, forest, extensive, SV",,1.29434699,m2a,,1.29435E-14,m2a
Raw,(unspecified),"Occupation, forest, extensive, SY",,9.34566657,m2a,,9.34567E-16,m2a
Raw,(unspecified),"Occupation, forest, extensive, SZ",,2.20034883,m2a,,2.20035E-15,m2a
Raw,(unspecified),"Occupation, forest, extensive, TC",,2.01807961,m2a,,2.01808E-14,m2a
Raw,(unspecified),"Occupation, forest, extensive, TD",,1.61364325,m2a,,1.61364E-16,m2a
Raw,(unspecified),"Occupation, forest, extensive, TF",,1.76660798,m2a,,1.77E-15,m2a
Raw,(unspecified),"Occupation, forest, extensive, TG",,9.78580605,m2a,,9.78581E-16,m2a
Raw,(unspecified),"Occupation, forest, extensive, TH",,3.08482402,m2a,,3.08482E-15,m2a
Raw,(unspecified),"Occupation, forest, extensive, TJ",,6.01372674,m2a,,6.01373E-16,m2a
Raw,(unspecified),"Occupation, forest, extensive, TK",,1.76660798,m2a,,1.76661E-15,m2a
Raw,(unspecified),"Occupation, forest, extensive, TL",,1.76660798,m2a,,1.76661E-15,m2a
Raw,(unspecified),"Occupation, forest, extensive, TM",,2.61530950,m2a,,2.61531E-16,m2a
Raw,(unspecified),"Occupation, forest, extensive, TN",,5.03887381,m2a,,5.03887E-16,m2a
Raw,(unspecified),"Occupation, forest, extensive, TO",,2.66290002,m2a,,2.6629E-13,m2a
Raw,(unspecified),"Occupation, forest, extensive, TR",,1.67590475,m2a,,1.6759E-15,m2a
Raw,(unspecified),"Occupation, forest, extensive, TT",,1.07005410,m2a,,1.07005E-13,m2a
Raw,(unspecified),"Occupation, forest, extensive, TV",,4.04426755,m2a,,4.04427E-13,m2a
Raw,(unspecified),"Occupation, forest, extensive, TW",,3.83870037,m2a,,3.8387E-14,m2a
Raw,(unspecified),"Occupation, forest, extensive, TZ",,2.96877666,m2a,,2.96878E-15,m2a
Raw,(unspecified),"Occupation, forest, extensive, UA",,2.38455375,m2a,,2.38455E-16,m2a
Raw,(unspecified),"Occupation, forest, extensive, UG",,3.18767872,m2a,,3.18768E-15,m2a
Raw,(unspecified),"Occupation, forest, extensive, UM",,1.76660798,m2a,,1.76661E-15,m2a
Raw,(unspecified),"Occupation, forest, extensive, UN-OCEANIA",,1.76660798,m2a,,1.77E-15,m2a
Raw,(unspecified),"Occupation, forest, extensive, US",,8.02819680,m2a,,8.0282E-16,m2a
Raw,(unspecified),"Occupation, forest, extensive, UY",,1.24777819,m2a,,1.24778E-15,m2a
Raw,(unspecified),"Occupation, forest, extensive, UZ",,2.73420416,m2a,,2.7342E-16,m2a
Raw,(unspecified),"Occupation, forest, extensive, VA",,2.72290171,m2a,,2.7229E-15,m2a
Raw,(unspecified),"Occupation, forest, extensive, VC",,1.32884157,m2a,,1.32884E-13,m2a
Raw,(unspecified),"Occupation, forest, extensive, VE",,5.16900778,m2a,,5.16901E-15,m2a
Raw,(unspecified),"Occupation, forest, extensive, VG",,9.73771158,m2a,,9.73771E-14,m2a
Raw,(unspecified),"Occupation, forest, extensive, VI",,1.50223428,m2a,,1.50223E-13,m2a
Raw,(unspecified),"Occupation, forest, extensive, VN",,5.53785905,m2a,,5.53786E-15,m2a
Raw,(unspecified),"Occupation, forest, extensive, VU",,1.99149202,m2a,,1.99149E-14,m2a
Raw,(unspecified),"Occupation, forest, extensive, WF",,5.79203673,m2a,,5.79204E-14,m2a
Raw,(unspecified),"Occupation, forest, extensive, WS",,1.48655614,m2a,,1.48656E-13,m2a
Raw,(unspecified),"Occupation, forest, extensive, YE",,7.67968827,m2a,,7.67969E-16,m2a
Raw,(unspecified),"Occupation, forest, extensive, YT",,1.81797957,m2a,,1.81798E-13,m2a
Raw,(unspecified),"Occupation, forest, extensive, ZA",,4.56173745,m2a,,4.56174E-15,m2a
Raw,(unspecified),"Occupation, forest, extensive, ZM",,8.50877723,m2a,,8.50878E-16,m2a
Raw,(unspecified),"Occupation, forest, extensive, ZW",,9.18356582,m2a,,9.18357E-16,m2a
Raw,(unspecified),"Occupation, forest, intensive",,2.76762009,m2a,,2.77E-15,m2a
Raw,(unspecified),"Occupation, forest, intensive, AD",,1.18826922,m2a,,1.18827E-14,m2a
Raw,(unspecified),"Occupation, forest, intensive, AE",,1.61831906,m2a,,1.61832E-16,m2a
Raw,(unspecified),"Occupation, forest, intensive, AF",,5.44624746,m2a,,5.44625E-16,m2a
Raw,(unspecified),"Occupation, forest, intensive, AG",,1.47522479,m2a,,1.47522E-13,m2a
Raw,(unspecified),"Occupation, forest, intensive, AI",,9.02252939,m2a,,9.02253E-14,m2a
Raw,(unspecified),"Occupation, forest, intensive, AL",,1.00994633,m2a,,1.00995E-14,m2a
Raw,(unspecified),"Occupation, forest, intensive, AM",,3.72154073,m2a,,3.72154E-15,m2a
Raw,(unspecified),"Occupation, forest, intensive, AO",,9.04124763,m2a,,9.04125E-16,m2a
Raw,(unspecified),"Occupation, forest, intensive, AQ",,2.76762009,m2a,,2.77E-15,m2a
Raw,(unspecified),"Occupation, forest, intensive, AR",,1.06847341,m2a,,1.06847E-15,m2a
Raw,(unspecified),"Occupation, forest, intensive, AS",,3.07188755,m2a,,3.07189E-13,m2a
Raw,(unspecified),"Occupation, forest, intensive, AT",,1.98639587,m2a,,1.9864E-15,m2a
Raw,(unspecified),"Occupation, forest, intensive, AU",,1.86433635,m2a,,1.86434E-15,m2a
Raw,(unspecified),"Occupation, forest, intensive, AW",,1.42506684,m2a,,1.42507E-14,m2a
Raw,(unspecified),"Occupation, forest, intensive, AZ",,3.45895550,m2a,,3.45896E-15,m2a
Raw,(unspecified),"Occupation, forest, intensive, BA",,1.94285642,m2a,,1.94286E-15,m2a
Raw,(unspecified),"Occupation, forest, intensive, BB",,8.45201366,m2a,,8.45201E-14,m2a
Raw,(unspecified),"Occupation, forest, intensive, BD",,1.73025705,m2a,,1.73026E-15,m2a
Raw,(unspecified),"Occupation, forest, intensive, BE",,2.73127636,m2a,,2.73128E-16,m2a
Raw,(unspecified),"Occupation, forest, intensive, BF",,3.93995251,m2a,,3.93995E-16,m2a
Raw,(unspecified),"Occupation, forest, intensive, BG",,2.30256469,m2a,,2.30256E-15,m2a
Raw,(unspecified),"Occupation, forest, intensive, BH",,1.10983054,m2a,,1.10983E-16,m2a
Raw,(unspecified),"Occupation, forest, intensive, BI",,5.97486498,m2a,,5.97486E-15,m2a
Raw,(unspecified),"Occupation, forest, intensive, BJ",,5.53433056,m2a,,5.53433E-16,m2a
Raw,(unspecified),"Occupation, forest, intensive, BM",,2.76762009,m2a,,2.77E-15,m2a
Raw,(unspecified),"Occupation, forest, intensive, BN",,7.39226262,m2a,,7.39226E-15,m2a
Raw,(unspecified),"Occupation, forest, intensive, BO",,3.22386549,m2a,,3.22387E-15,m2a
Raw,(unspecified),"Occupation, forest, intensive, BR",,3.33363934,m2a,,3.33364E-15,m2a
Raw,(unspecified),"Occupation, forest, intensive, BS",,4.06704423,m2a,,4.06704E-14,m2a
Raw,(unspecified),"Occupation, forest, intensive, BT",,9.07816997,m2a,,9.07817E-15,m2a
Raw,(unspecified),"Occupation, forest, intensive, BV",,2.76762009,m2a,,2.77E-15,m2a
Raw,(unspecified),"Occupation, forest, intensive, BW",,4.49960827,m2a,,4.49961E-16,m2a
Raw,(unspecified),"Occupation, forest, intensive, BY",,1.74206936,m2a,,1.74207E-16,m2a
Raw,(unspecified),"Occupation, forest, intensive, BZ",,1.68017623,m2a,,1.68018E-14,m2a
Raw,(unspecified),"Occupation, forest, intensive, CA",,7.31160892,m2a,,7.31161E-17,m2a
Raw,(unspecified),"Occupation, forest, intensive, CC",,8.84074953,m2a,,8.84075E-13,m2a
Raw,(unspecified),"Occupation, forest, intensive, CD",,1.80352865,m2a,,1.80353E-15,m2a
Raw,(unspecified),"Occupation, forest, intensive, CF",,6.86164232,m2a,,6.86164E-16,m2a
Raw,(unspecified),"Occupation, forest, intensive, CG",,1.96915459,m2a,,1.96915E-15,m2a
Raw,(unspecified),"Occupation, forest, intensive, CH",,1.95544806,m2a,,1.95545E-15,m2a
Raw,(unspecified),"Occupation, forest, intensive, CI",,3.15348830,m2a,,3.15349E-15,m2a
Raw,(unspecified),"Occupation, forest, intensive, CK",,7.06082290,m2a,,7.06082E-13,m2a
Raw,(unspecified),"Occupation, forest, intensive, CL",,2.64252191,m2a,,2.64252E-15,m2a
Raw,(unspecified),"Occupation, forest, intensive, clear-cutting",,2.76762009,m2a,,2.77E-15,m2a
Raw,(unspecified),"Occupation, forest, intensive, CM",,5.70653092,m2a,,5.70653E-15,m2a
Raw,(unspecified),"Occupation, forest, intensive, CN",,1.42253960,m2a,,1.42254E-15,m2a
Raw,(unspecified),"Occupation, forest, intensive, CO",,1.83366978,m2a,,1.83367E-14,m2a
Raw,(unspecified),"Occupation, forest, intensive, CR",,4.87453382,m2a,,4.87453E-14,m2a
Raw,(unspecified),"Occupation, forest, intensive, CS",,7.08059364,m2a,,7.08059E-16,m2a
Raw,(unspecified),"Occupation, forest, intensive, CU",,5.98113099,m2a,,5.98113E-14,m2a
Raw,(unspecified),"Occupation, forest, intensive, CV",,1.63713070,m2a,,1.63713E-13,m2a
Raw,(unspecified),"Occupation, forest, intensive, CX",,8.84074953,m2a,,8.84075E-13,m2a
Raw,(unspecified),"Occupation, forest, intensive, CY",,3.21498200,m2a,,3.21498E-14,m2a
Raw,(unspecified),"Occupation, forest, intensive, CZ",,2.91255037,m2a,,2.91255E-16,m2a
Raw,(unspecified),"Occupation, forest, intensive, DE",,2.91998239,m2a,,2.91998E-16,m2a
Raw,(unspecified),"Occupation, forest, intensive, DJ",,7.34057067,m2a,,7.34057E-16,m2a
Raw,(unspecified),"Occupation, forest, intensive, DK",,2.93363427,m2a,,2.93363E-16,m2a
Raw,(unspecified),"Occupation, forest, intensive, DM",,4.00731019,m2a,,4.00731E-13,m2a
Raw,(unspecified),"Occupation, forest, intensive, DO",,9.09222462,m2a,,9.09222E-14,m2a
Raw,(unspecified),"Occupation, forest, intensive, DZ",,1.91427118,m2a,,1.91427E-16,m2a
Raw,(unspecified),"Occupation, forest, intensive, EC",,3.69878185,m2a,,3.69878E-14,m2a
Raw,(unspecified),"Occupation, forest, intensive, EE",,1.26837576,m2a,,1.26838E-16,m2a
Raw,(unspecified),"Occupation, forest, intensive, EG",,8.45183956,m2a,,8.45184E-17,m2a
Raw,(unspecified),"Occupation, forest, intensive, EH",,1.11641594,m2a,,1.11642E-16,m2a
Raw,(unspecified),"Occupation, forest, intensive, ER",,1.06237205,m2a,,1.06237E-15,m2a
Raw,(unspecified),"Occupation, forest, intensive, ES",,8.33662225,m2a,,8.33662E-15,m2a
Raw,(unspecified),"Occupation, forest, intensive, ET",,1.97040297,m2a,,1.9704E-15,m2a
Raw,(unspecified),"Occupation, forest, intensive, FI",,7.67153677,m2a,,7.67154E-17,m2a
Raw,(unspecified),"Occupation, forest, intensive, FJ",,1.26965101,m2a,,1.26965E-13,m2a
Raw,(unspecified),"Occupation, forest, intensive, FK",,7.52253182,m2a,,7.52253E-16,m2a
Raw,(unspecified),"Occupation, forest, intensive, FM",,2.76762009,m2a,,2.77E-15,m2a
Raw,(unspecified),"Occupation, forest, intensive, FO",,2.30804719,m2a,,2.30805E-15,m2a
Raw,(unspecified),"Occupation, forest, intensive, FR",,1.59832651,m2a,,1.59833E-15,m2a
Raw,(unspecified),"Occupation, forest, intensive, GA",,3.14704395,m2a,,3.14704E-15,m2a
Raw,(unspecified),"Occupation, forest, intensive, GB",,2.94905322,m2a,,2.94905E-16,m2a
Raw,(unspecified),"Occupation, forest, intensive, GD",,3.54845132,m2a,,3.54845E-13,m2a
Raw,(unspecified),"Occupation, forest, intensive, GE",,4.22647404,m2a,,4.22647E-15,m2a
Raw,(unspecified),"Occupation, forest, intensive, GF",,2.68849042,m2a,,2.68849E-15,m2a
Raw,(unspecified),"Occupation, forest, intensive, GH",,2.33452215,m2a,,2.33452E-15,m2a
Raw,(unspecified),"Occupation, forest, intensive, GI",,4.86748095,m2a,,4.86748E-15,m2a
Raw,(unspecified),"Occupation, forest, intensive, GL",,2.74736962,m2a,,2.74737E-17,m2a
Raw,(unspecified),"Occupation, forest, intensive, GM",,7.16298318,m2a,,7.16298E-16,m2a
Raw,(unspecified),"Occupation, forest, intensive, GN",,2.23951035,m2a,,2.23951E-15,m2a
Raw,(unspecified),"Occupation, forest, intensive, GP",,3.93866149,m2a,,3.93866E-13,m2a
Raw,(unspecified),"Occupation, forest, intensive, GQ",,8.61444638,m2a,,8.61445E-15,m2a
Raw,(unspecified),"Occupation, forest, intensive, GR",,7.12209831,m2a,,7.1221E-15,m2a
Raw,(unspecified),"Occupation, forest, intensive, GS",,2.76762009,m2a,,2.77E-15,m2a
Raw,(unspecified),"Occupation, forest, intensive, GT",,2.06874704,m2a,,2.06875E-14,m2a
Raw,(unspecified),"Occupation, forest, intensive, GU",,5.22117729,m2a,,5.22118E-13,m2a
Raw,(unspecified),"Occupation, forest, intensive, GW",,1.26819594,m2a,,1.2682E-15,m2a
Raw,(unspecified),"Occupation, forest, intensive, GY",,3.49465765,m2a,,3.49466E-15,m2a
Raw,(unspecified),"Occupation, forest, intensive, HK",,1.42253960,m2a,,1.42254E-15,m2a
Raw,(unspecified),"Occupation, forest, intensive, HM",,2.76762009,m2a,,2.77E-15,m2a
Raw,(unspecified),"Occupation, forest, intensive, HN",,1.79887797,m2a,,1.79888E-14,m2a
Raw,(unspecified),"Occupation, forest, intensive, HR",,2.74362406,m2a,,2.74362E-15,m2a
Raw,(unspecified),"Occupation, forest, intensive, HT",,8.52728996,m2a,,8.52729E-14,m2a
Raw,(unspecified),"Occupation, forest, intensive, HU",,3.49967559,m2a,,3.49968E-16,m2a
Raw,(unspecified),"Occupation, forest, intensive, ID",,1.33169946,m2a,,1.3317E-14,m2a
Raw,(unspecified),"Occupation, forest, intensive, IE",,2.26264380,m2a,,2.26264E-16,m2a
Raw,(unspecified),"Occupation, forest, intensive, IL",,1.57161579,m2a,,1.57162E-15,m2a
Raw,(unspecified),"Occupation, forest, intensive, IM",,2.03204269,m2a,,2.03204E-16,m2a
Raw,(unspecified),"Occupation, forest, intensive, IN",,4.26761424,m2a,,4.26761E-15,m2a
Raw,(unspecified),"Occupation, forest, intensive, IO",,3.87594892,m2a,,3.87595E-13,m2a
Raw,(unspecified),"Occupation, forest, intensive, IQ",,2.85530550,m2a,,2.85531E-16,m2a
Raw,(unspecified),"Occupation, forest, intensive, IR",,8.87282853,m2a,,8.87283E-16,m2a
Raw,(unspecified),"Occupation, forest, intensive, IS",,9.61220868,m2a,,9.61221E-17,m2a
Raw,(unspecified),"Occupation, forest, intensive, IT",,5.39944571,m2a,,5.39945E-15,m2a
Raw,(unspecified),"Occupation, forest, intensive, JE",,2.75454310,m2a,,2.75454E-16,m2a
Raw,(unspecified),"Occupation, forest, intensive, JM",,2.39938711,m2a,,2.39939E-13,m2a
Raw,(unspecified),"Occupation, forest, intensive, JO",,6.10188445,m2a,,6.10188E-16,m2a
Raw,(unspecified),"Occupation, forest, intensive, JP",,7.95929611,m2a,,7.9593E-15,m2a
Raw,(unspecified),"Occupation, forest, intensive, KE",,2.79479025,m2a,,2.79479E-15,m2a
Raw,(unspecified),"Occupation, forest, intensive, KG",,9.71723871,m2a,,9.71724E-16,m2a
Raw,(unspecified),"Occupation, forest, intensive, KH",,4.15580157,m2a,,4.1558E-15,m2a
Raw,(unspecified),"Occupation, forest, intensive, KI",,2.57132011,m2a,,2.57132E-13,m2a
Raw,(unspecified),"Occupation, forest, intensive, KM",,2.89491753,m2a,,2.89492E-13,m2a
Raw,(unspecified),"Occupation, forest, intensive, KN",,2.29628540,m2a,,2.29629E-13,m2a
Raw,(unspecified),"Occupation, forest, intensive, KP",,8.33467847,m2a,,8.33468E-16,m2a
Raw,(unspecified),"Occupation, forest, intensive, KR",,1.88754074,m2a,,1.88754E-15,m2a
Raw,(unspecified),"Occupation, forest, intensive, KW",,1.08636913,m2a,,1.08637E-16,m2a
Raw,(unspecified),"Occupation, forest, intensive, KY",,2.22948887,m2a,,2.22949E-14,m2a
Raw,(unspecified),"Occupation, forest, intensive, KZ",,2.09975209,m2a,,2.09975E-16,m2a
Raw,(unspecified),"Occupation, forest, intensive, LA",,6.98794913,m2a,,6.98795E-15,m2a
Raw,(unspecified),"Occupation, forest, intensive, LB",,5.42688996,m2a,,5.42689E-15,m2a
Raw,(unspecified),"Occupation, forest, intensive, LC",,3.33784709,m2a,,3.33785E-13,m2a
Raw,(unspecified),"Occupation, forest, intensive, LI",,2.30104720,m2a,,2.30105E-15,m2a
Raw,(unspecified),"Occupation, forest, intensive, LK",,5.67615936,m2a,,5.67616E-14,m2a
Raw,(unspecified),"Occupation, forest, intensive, LR",,6.52833198,m2a,,6.52833E-15,m2a
Raw,(unspecified),"Occupation, forest, intensive, LS",,4.17728844,m2a,,4.17729E-15,m2a
Raw,(unspecified),"Occupation, forest, intensive, LT",,1.54867996,m2a,,1.54868E-16,m2a
Raw,(unspecified),"Occupation, forest, intensive, LU",,2.66411135,m2a,,2.66411E-16,m2a
Raw,(unspecified),"Occupation, forest, intensive, LV",,1.26837576,m2a,,1.26838E-16,m2a
Raw,(unspecified),"Occupation, forest, intensive, LY",,6.06638314,m2a,,6.06638E-17,m2a
Raw,(unspecified),"Occupation, forest, intensive, MA",,1.30972797,m2a,,1.30973E-15,m2a
Raw,(unspecified),"Occupation, forest, intensive, MC",,4.46906017,m2a,,4.46906E-15,m2a
Raw,(unspecified),"Occupation, forest, intensive, MD",,1.93336249,m2a,,1.93336E-16,m2a
Raw,(unspecified),"Occupation, forest, intensive, ME",,3.94295876,m2a,,3.94296E-15,m2a
Raw,(unspecified),"Occupation, forest, intensive, MG",,2.03417756,m2a,,2.03418E-14,m2a
Raw,(unspecified),"Occupation, forest, intensive, MH",,2.76762009,m2a,,2.77E-15,m2a
Raw,(unspecified),"Occupation, forest, intensive, MK",,2.65460134,m2a,,2.6546E-15,m2a
Raw,(unspecified),"Occupation, forest, intensive, ML",,1.98683349,m2a,,1.98683E-16,m2a
Raw,(unspecified),"Occupation, forest, intensive, MM",,4.92733504,m2a,,4.92734E-15,m2a
Raw,(unspecified),"Occupation, forest, intensive, MN",,1.63772843,m2a,,1.63773E-16,m2a
Raw,(unspecified),"Occupation, forest, intensive, MO",,4.43195944,m2a,,4.43196E-15,m2a
Raw,(unspecified),"Occupation, forest, intensive, MP",,5.22117729,m2a,,5.22118E-13,m2a
Raw,(unspecified),"Occupation, forest, intensive, MQ",,3.62810178,m2a,,3.6281E-13,m2a
Raw,(unspecified),"Occupation, forest, intensive, MR",,1.14796298,m2a,,1.14796E-16,m2a
Raw,(unspecified),"Occupation, forest, intensive, MS",,3.43820904,m2a,,3.43821E-13,m2a
Raw,(unspecified),"Occupation, forest, intensive, MT",,8.83140948,m2a,,8.83141E-15,m2a
Raw,(unspecified),"Occupation, forest, intensive, MU",,1.03614780,m2a,,1.03615E-13,m2a
Raw,(unspecified),"Occupation, forest, intensive, MV",,3.87594892,m2a,,3.87595E-13,m2a
Raw,(unspecified),"Occupation, forest, intensive, MW",,3.19889650,m2a,,3.1989E-15,m2a
Raw,(unspecified),"Occupation, forest, intensive, MX",,1.01706603,m2a,,1.01707E-14,m2a
Raw,(unspecified),"Occupation, forest, intensive, MY",,1.46125932,m2a,,1.46126E-14,m2a
Raw,(unspecified),"Occupation, forest, intensive, MZ",,1.44838126,m2a,,1.44838E-15,m2a
Raw,(unspecified),"Occupation, forest, intensive, NA",,9.59199260,m2a,,9.59199E-16,m2a
Raw,(unspecified),"Occupation, forest, intensive, NC",,5.01876540,m2a,,5.01877E-14,m2a
Raw,(unspecified),"Occupation, forest, intensive, NE",,1.36463791,m2a,,1.36464E-16,m2a
Raw,(unspecified),"Occupation, forest, intensive, NF",,1.56677143,m2a,,1.56677E-13,m2a
Raw,(unspecified),"Occupation, forest, intensive, NG",,1.95362560,m2a,,1.95363E-15,m2a
Raw,(unspecified),"Occupation, forest, intensive, NI",,1.64122797,m2a,,1.64123E-14,m2a
Raw,(unspecified),"Occupation, forest, intensive, NL",,2.75449140,m2a,,2.75449E-16,m2a
Raw,(unspecified),"Occupation, forest, intensive, NO",,1.07021842,m2a,,1.07022E-16,m2a
Raw,(unspecified),"Occupation, forest, intensive, normal",,2.76762009,m2a,,2.77E-15,m2a
Raw,(unspecified),"Occupation, forest, intensive, NP",,5.91884686,m2a,,5.91885E-15,m2a
Raw,(unspecified),"Occupation, forest, intensive, NR",,2.76762009,m2a,,2.77E-15,m2a
Raw,(unspecified),"Occupation, forest, intensive, NU",,6.26924843,m2a,,6.26925E-13,m2a
Raw,(unspecified),"Occupation, forest, intensive, NZ",,1.00318413,m2a,,1.00318E-14,m2a
Raw,(unspecified),"Occupation, forest, intensive, OM",,4.22413444,m2a,,4.22413E-16,m2a
Raw,(unspecified),"Occupation, forest, intensive, PA",,5.07504710,m2a,,5.07505E-14,m2a
Raw,(unspecified),"Occupation, forest, intensive, PE",,8.88454967,m2a,,8.88455E-15,m2a
Raw,(unspecified),"Occupation, forest, intensive, PF",,6.96410365,m2a,,6.9641E-15,m2a
Raw,(unspecified),"Occupation, forest, intensive, PG",,2.50945939,m2a,,2.50946E-14,m2a
Raw,(unspecified),"Occupation, forest, intensive, PH",,4.28343500,m2a,,4.28344E-14,m2a
Raw,(unspecified),"Occupation, forest, intensive, PK",,6.09137026,m2a,,6.09137E-16,m2a
Raw,(unspecified),"Occupation, forest, intensive, PL",,3.22968901,m2a,,3.22969E-16,m2a
Raw,(unspecified),"Occupation, forest, intensive, PM",,2.76762009,m2a,,2.77E-15,m2a
Raw,(unspecified),"Occupation, forest, intensive, PR",,2.06661343,m2a,,2.06661E-13,m2a
Raw,(unspecified),"Occupation, forest, intensive, PS",,3.54072178,m2a,,3.54072E-15,m2a
Raw,(unspecified),"Occupation, forest, intensive, PT",,3.32701632,m2a,,3.32702E-14,m2a
Raw,(unspecified),"Occupation, forest, intensive, PW",,4.68906612,m2a,,4.68907E-13,m2a
Raw,(unspecified),"Occupation, forest, intensive, PY",,1.43749870,m2a,,1.4375E-15,m2a
Raw,(unspecified),"Occupation, forest, intensive, QA",,9.01026096,m2a,,9.01026E-17,m2a
